[
  {
    "title": "Bibliotheek Beveren",
    "lat": "51.21713",
    "lon": "4.26224",
    "popuptext": "<b>Bibliotheek Beveren</b><br /><b>Toestellen:</b><br /> ...<br /><a href=\\\"https://beveren.bibliotheek.be/\\\"> Website</a>",
    "link": "https://beveren.bibliotheek.be/"
  },
  {
    "title": "Bibliotheek Kruibeke",
    "lat": "51.17115",
    "lon": "4.31372",
    "popuptext": "<b>Bibliotheek Kruibeke</b><br /><b>Toestellen:</b><br /> ...<br /><a href=\\\"http://kruibeke.bibliotheek.be/\\\"> Website</a>",
    "link": "http://kruibeke.bibliotheek.be/"
  },
  {
    "title": "Bibliotheek Lokeren",
    "lat": "51.10561",
    "lon": "3.99124",
    "popuptext": "<b>Bibliotheek Lokeren</b><br /><b>Toestellen:</b><br /> ...<br /><a href=\\\"http://lokeren.bibliotheek.be/\\\"> Website</a>",
    "link": "http://lokeren.bibliotheek.be/"
  },
  {
    "title": "Bibliotheek Moerbeke",
    "lat": "51.21713",
    "lon": "4.26224",
    "popuptext": "<b>Bibliotheek Moerbeke</b><br /><b>Toestellen:</b><br /> ...<br /><a href=\\\"http://www.moerbeke.be/website/16-www/60-www.html\\\"> Website</a>",
    "link": "http://www.moerbeke.be/website/16-www/60-www.html"
  },
  {
    "title": "Bibliotheek Sint-Gillis-Waas",
    "lat": "51.21956",
    "lon": "4.12549",
    "popuptext": "<b>Bibliotheek Sint-Gillis-Waas</b><br /><b>Toestellen:</b><br /> ...<br /><a href=\\\"http://sint-gillis-waas.bibliotheek.be/\\\"> Website</a>",
    "link": "http://sint-gillis-waas.bibliotheek.be/"
  },
  {
    "title": "Bibliotheek Sint-Niklaas",
    "lat": "51.16305",
    "lon": "4.13995",
    "popuptext": "<b>Bibliotheek Sint-Niklaas</b><br /><b>Toestellen:</b><br /> ...<br /><a href=\\\"http://sint-niklaas.bibliotheek.be/\\\"> Website</a>",
    "link": "http://sint-niklaas.bibliotheek.be/"
  },
  {
    "title": "Bibliotheek Stekene",
    "lat": "51.20501",
    "lon": "4.04422",
    "popuptext": "<b>Bibliotheek Stekene</b><br /><b>Toestellen:</b><br /> ...<br /><a href=\\\"https://stekene.bibliotheek.be/\\\"> Website</a>",
    "link": "https://stekene.bibliotheek.be/"
  },
  {
    "title": "Bibliotheek Temse",
    "lat": "51.12536",
    "lon": "4.21207",
    "popuptext": "<b>Bibliotheek Temse</b><br /><b>Toestellen:</b><br /> ...<br /><a href=\\\"http://temse.bibliotheek.be/\\\"> Website</a>",
    "link": "http://temse.bibliotheek.be/"
  },
  {
    "title": "Bibliotheek Waasmunster",
    "lat": "51.10650",
    "lon": "4.08791",
    "popuptext": "<b>Bibliotheek Waasmunster</b><br /><b>Toestellen:</b><br /> ...<br /><a href=\\\"https://waasmunster.bibliotheek.be/\\\"> Website</a>",
    "link": "https://waasmunster.bibliotheek.be/"
  },
  {
    "title": "Bibliotheek Zwijndrecht",
    "lat": "51.21616",
    "lon": "4.32539",
    "popuptext": "<b>Bibliotheek Zwijndrecht</b><br /><b>Toestellen:</b><br /> ...<br /><a href=\\\"https://zwijndrecht.bibliotheek.be/\\\"> Website</a>",
    "link": "https://zwijndrecht.bibliotheek.be/"
  },
  {
    "title": "Bibliotheek Zonnebeke",
    "lat": "50.87053",
    "lon": "2.98786",
    "popuptext": "<b>Bibliotheek Zonnebeke</b><br /><b>Toestellen:</b><br /> ...<br /><a href=\\\"https://www.zonnebeke.be/Bestuur/Gemeentelijke_diensten/Bibliotheek\\\"> Website</a>",
    "link": "https://www.zonnebeke.be/Bestuur/Gemeentelijke_diensten/Bibliotheek"
  },
  {
    "title": "Bibliotheek Poperinge",
    "lat": "50.85840",
    "lon": "2.72934",
    "popuptext": "<b>Bibliotheek Poperinge</b><br /><b>Toestellen:</b><br /> ...<br /><a href=\\\"http://poperinge.bibliotheek.be/\\\"> Website</a>",
    "link": "http://poperinge.bibliotheek.be/"
  },
  {
    "title": "Bibliotheek Langemark-Poelkapelle",
    "lat": "50.91614",
    "lon": "2.91990",
    "popuptext": "<b>Bibliotheek Langemark-Poelkapelle</b><br /><b>Toestellen:</b><br /> ...<br /><a href=\\\"https://langemark-poelkapelle.bibliotheek.be/\\\"> Website</a>",
    "link": "https://langemark-poelkapelle.bibliotheek.be/"
  },
  {
    "title": "Bibliotheek Ieper",
    "lat": "50.85618",
    "lon": "2.88525",
    "popuptext": "<b>Bibliotheek Ieper</b><br /><b>Toestellen:</b><br /> ...<br /><a href=\\\"http://ieper.bibliotheek.be/\\\"> Website</a>",
    "link": "http://ieper.bibliotheek.be/"
  },
  {
    "title": "Bibliotheek Kortrijk",
    "lat": "50.82933",
    "lon": "3.26459",
    "popuptext": "<b>Bibliotheek Kortrijk</b><br /><b>Toestellen:</b><br /> ...<br /><a href=\\\"http://www.kortrijk.be/bibliotheek\\\"> Website</a>",
    "link": "http://www.kortrijk.be/bibliotheek"
  },
  {
    "title": "Bibliotheek Rollegem",
    "lat": "50.76799",
    "lon": "3.26319",
    "popuptext": "<b>Bibliotheek Rollegem</b><br /><b>Toestellen:</b><br /> ...<br /><a href=\\\"http://www.kortrijk.be/bibliotheek/rollegem\\\"> Website</a>",
    "link": "http://www.kortrijk.be/bibliotheek/rollegem"
  },
  {
    "title": "Bibliotheek Maldegem",
    "lat": "51.20847",
    "lon": "3.44861",
    "popuptext": "<b>Bibliotheek Maldegem</b><br /><b>Toestellen:</b><br /> ...<br /><a href=\\\"http://maldegem.bibliotheek.be/\\\"> Website</a>",
    "link": "http://maldegem.bibliotheek.be/"
  },
  {
    "title": "Bibliotheek Gent De Krook",
    "lat": "51.04909",
    "lon": "3.72889",
    "popuptext": "<b>Bibliotheek  Gent De Krook</b><br /><b>Toestellen:</b><br /> ...<br /><a href=\\\"https://www.dekrook.be/\\\"> Website</a>",
    "link": "https://www.dekrook.be/"
  },
  {
    "title": "Bibliotheek Middelkerke",
    "lat": "51.18721",
    "lon": "2.82308",
    "popuptext": "<b>Bibliotheek Middelkerke</b><br /><b>Toestellen:</b><br /> ...<br /><a href=\\\"http://middelkerke.bibliotheek.be/\\\"> Website</a>",
    "link": "http://middelkerke.bibliotheek.be/"
  },
  {
    "title": "Bibliotheek Pelt",
    "lat": "51.23070",
    "lon": "5.43218",
    "popuptext": "<b>Bibliotheek Pelt</b><br /><b>Toestellen:</b><br /> ...<br /><a href=\\\"https://pelt.bibliotheek.be/\\\"> Website</a>",
    "link": "https://pelt.bibliotheek.be/"
  },
  {
    "title": "Bibliotheek Sint-Pieters-Leeuw",
    "lat": "50.77981",
    "lon": "4.24398",
    "popuptext": "<b>Bibliotheek Sint-Pieters-Leeuw</b><br /><b>Toestellen:</b><br /> ...<br /><a href=\\\"http://sint-pieters-leeuw.bibliotheek.be/\\\"> Website</a>",
    "link": "http://sint-pieters-leeuw.bibliotheek.be/"
  },
  {
    "title": "Bibliotheek Buggenhout",
    "lat": "51.01529",
    "lon": "4.20271",
    "popuptext": "<b>Bibliotheek Buggenhout</b><br /><b>Toestellen:</b><br /> ...<br /><a href=\\\"https://buggenhout.bibliotheek.be/\\\"> Website</a>",
    "link": "https://buggenhout.bibliotheek.be/"
  },
  {
    "title": "Bibliotheek Permeke",
    "lat": "51.22194",
    "lon": "4.42113",
    "popuptext": "<b>Bibliotheek Permeke</b><br /><b>Toestellen:</b><br /> ...<br /><a href=\\\"http://www.permeke.org/\\\"> Website</a>",
    "link": "http://www.permeke.org/"
  },
  {
    "title": "Bibliotheek Hoboken",
    "lat": "51.17513",
    "lon": "4.34739",
    "popuptext": "<b>Bibliotheek Hoboken</b><br /><b>Toestellen:</b><br /> ...<br /><a href=\\\"https://antwerpen.bibliotheek.be/\\\"> Website</a>",
    "link": "https://antwerpen.bibliotheek.be/"
  },
  {
    "title": "Bibliotheek Luchtbal",
    "lat": "51.25305",
    "lon": "4.42323",
    "popuptext": "<b>Bibliotheek Luchtbal</b><br /><b>Toestellen:</b><br /> ...<br /><a href=\\\"https://antwerpen.bibliotheek.be/\\\"> Website</a>",
    "link": "https://antwerpen.bibliotheek.be/"
  },
  {
    "title": "Bibliotheek Park Antwerpen",
    "lat": "51.24736",
    "lon": "4.44996",
    "popuptext": "<b>Bibliotheek Park Antwerpen</b><br /><b>Toestellen:</b><br /> ...<br /><a href=\\\"https://antwerpen.bibliotheek.be/\\\"> Website</a>",
    "link": "https://antwerpen.bibliotheek.be/"
  },
  {
    "title": "Bibliotheek De Vertellerij",
    "lat": "51.19571",
    "lon": "4.44137",
    "popuptext": "<b>Bibliotheek  De Vertellerij</b><br /><b>Toestellen:</b><br /> ...<br /><a href=\\\"https://antwerpen.bibliotheek.be/\\\"> Website</a>",
    "link": "https://antwerpen.bibliotheek.be/"
  },
  {
    "title": "Bibliotheek Maaseik",
    "lat": "51.09413",
    "lon": "5.79580",
    "popuptext": "<b>Bibliotheek Maaseik - vanaf 2022!</b><br /><b>Toestellen:</b><br /> ...<br /><a href=\\\"https://maaseik.bibliotheek.be/\\\"> Website</a>",
    "link": "https://maaseik.bibliotheek.be/"
  },
  {
    "title": "Minus One",
    "lat": "51.06475",
    "lon": "3.71677",
    "popuptext": "<b>Minus One</b><br /><b>Toestellen:</b><br /> ...<br /><a href=\\\"http://www.minus-one.be/\\\"> Website</a>",
    "link": "http://www.minus-one.be/"
  },
  {
    "title": "Kras Dam",
    "lat": "51.23337",
    "lon": "4.43201",
    "popuptext": "<b>Kras Dam</b><br /><b>Toestellen:</b><br /> ...<br /><a href=\\\"https://www.krasjeugdwerk.be/steunpunten/dam\\\"> Website</a>",
    "link": "https://www.krasjeugdwerk.be/steunpunten/dam"
  },
  {
    "title": "Jeugddienst Sint-Gillis - Pianofabriek",
    "lat": "50.82892",
    "lon": "4.34272",
    "popuptext": "<b>Pianofabriek - Jeugddienst Sint-Gillis</b><br /><b>Toestellen:</b><br /> ...<br /><a href=\\\"http://www.pianofabriek.be/\\\"> Website</a>",
    "link": "http://www.pianofabriek.be/"
  },
]
